[
    {
        "date":"2019-07-02 07:39:46.0000",
        "nosalereason":"PEDIDO",
        "pdv":2609,
        "nombre_pdv":"PAIS ROSA",
        "seller":425,
        "nombre_seller":"IDARRETA GUSTAVO D. [425]",
        "transmision":1299514,
        "latitud_order":"-35.1604824335907296",
        "longitud_order":"-58.2449891112793949",
        "latitud_pdv":"-35.1604824335907296",
        "longitud_pdv":"-58.2449891112793949",
        "total":"815,933",
        "tipo_order":"PED"
    },
    {
        "date":"2019-07-02 08:14:43.0000",
        "nosalereason":"PEDIDO",
        "pdv":3085,
        "nombre_pdv":"PONZO GISELLE",
        "seller":425,
        "nombre_seller":"IDARRETA GUSTAVO D. [425]",
        "transmision":1299515,
        "latitud_order":"-35.1745758680418916",
        "longitud_order":"-58.2223556775720681",
        "latitud_pdv":"-35.1745758680418916",
        "longitud_pdv":"-58.2223556775720681",
        "total":"640,786",
        "tipo_order":"PED"
    },
    {
        "date":"2019-07-02 08:16:45.0000",
        "nosalereason":"PEDIDO",
        "pdv":8623,
        "nombre_pdv":"KOLHN ANDREA FABIANA",
        "seller":425,
        "nombre_seller":"IDARRETA GUSTAVO D. [425]",
        "transmision":1299516,
        "latitud_order":"-35.1691170000264393",
        "longitud_order":"-58.2282103240519291",
        "latitud_pdv":"-35.1691170000264393",
        "longitud_pdv":"-58.2282103240519291",
        "total":"842,758",
        "tipo_order":"PED"
    },
    {
        "date":"2019-07-02 08:19:18.0000",
        "nosalereason":"PEDIDO",
        "pdv":9516,
        "nombre_pdv":"BRUNO MARCELA FABIAN",
        "seller":425,
        "nombre_seller":"IDARRETA GUSTAVO D. [425]",
        "transmision":1299517,
        "latitud_order":"-35.1638082999999995",
        "longitud_order":"-58.2409566999999981",
        "latitud_pdv":"-35.1638082999999995",
        "longitud_pdv":"-58.2409566999999981",
        "total":"640,786",
        "tipo_order":"PED"
    },
    {
        "date":"2019-07-02 08:21:12.0000",
        "nosalereason":"PEDIDO",
        "pdv":9955,
        "nombre_pdv":"DON OCTAVIO PANIFICADOS SRL",
        "seller":425,
        "nombre_seller":"IDARRETA GUSTAVO D. [425]",
        "transmision":1299518,
        "latitud_order":"-35.1741152618145",
        "longitud_order":"-58.23322920883572",
        "latitud_pdv":"-35.172543333333",
        "longitud_pdv":"-58.231438333333",
        "total":"1839,658",
        "tipo_order":"PED"
    },
    {
        "date":"2019-07-02 08:40:21.0000",
        "nosalereason":"PEDIDO",
        "pdv":4393,
        "nombre_pdv":"PETROSINO FERNANDEZ IGNACIO ROBERTO",
        "seller":425,
        "nombre_seller":"IDARRETA GUSTAVO D. [425]",
        "transmision":1299519,
        "latitud_order":"-35.1690383724901565",
        "longitud_order":"-58.2389978389328675",
        "latitud_pdv":"-35.1690383724901565",
        "longitud_pdv":"-58.2389978389328675",
        "total":"3025,031",
        "tipo_order":"PED"
    },
    {
        "date":"2019-07-02 09:02:10.0000",
        "nosalereason":"SIN VISITA",
        "pdv":913,
        "nombre_pdv":"PARDO MARIANO Y PARDO GUSTAVO SH",
        "seller":425,
        "nombre_seller":"IDARRETA GUSTAVO D. [425]",
        "transmision":1299535,
        "latitud_order":"-35.1691497105742243",
        "longitud_order":"-58.2417787933794742",
        "latitud_pdv":"-35.1691497105742243",
        "longitud_pdv":"-58.2417787933794742",
        "total":"0",
        "tipo_order":"RVN"
    },
    {
        "date":"2019-07-02 09:06:29.0000",
        "nosalereason":"PEDIDO",
        "pdv":913,
        "nombre_pdv":"PARDO MARIANO Y PARDO GUSTAVO SH",
        "seller":425,
        "nombre_seller":"IDARRETA GUSTAVO D. [425]",
        "transmision":1299536,
        "latitud_order":"-35.1691497105742243",
        "longitud_order":"-58.2417787933794742",
        "latitud_pdv":"-35.1691497105742243",
        "longitud_pdv":"-58.2417787933794742",
        "total":"287,027",
        "tipo_order":"PED"
    },
    {
        "date":"2019-07-02 09:11:26.0000",
        "nosalereason":"PEDIDO",
        "pdv":6286,
        "nombre_pdv":"FERNANDEZ MARIA LAURA 8 A 22 HS",
        "seller":425,
        "nombre_seller":"IDARRETA GUSTAVO D. [425]",
        "transmision":1299537,
        "latitud_order":"-35.1672808959955034",
        "longitud_order":"-58.2465832712697633",
        "latitud_pdv":"-35.1672808959955034",
        "longitud_pdv":"-58.2465832712697633",
        "total":"4118,574",
        "tipo_order":"PED"
    },
    {
        "date":"2019-07-02 09:31:59.0000",
        "nosalereason":"PEDIDO",
        "pdv":4021,
        "nombre_pdv":"RICO CARLOS ADRIAN",
        "seller":425,
        "nombre_seller":"IDARRETA GUSTAVO D. [425]",
        "transmision":1299547,
        "latitud_order":"-35.1633870097605552",
        "longitud_order":"-58.2435777642913308",
        "latitud_pdv":"-35.1633870097605552",
        "longitud_pdv":"-58.2435777642913308",
        "total":"738,135",
        "tipo_order":"PED"
    },
    {
        "date":"2019-07-02 09:35:13.0000",
        "nosalereason":"PEDIDO",
        "pdv":4021,
        "nombre_pdv":"RICO CARLOS ADRIAN",
        "seller":425,
        "nombre_seller":"IDARRETA GUSTAVO D. [425]",
        "transmision":1299548,
        "latitud_order":"-35.1633870097605552",
        "longitud_order":"-58.2435777642913308",
        "latitud_pdv":"-35.1633870097605552",
        "longitud_pdv":"-58.2435777642913308",
        "total":"583,006",
        "tipo_order":"PED"
    },
    {
        "date":"2019-07-02 09:41:32.0000",
        "nosalereason":"PEDIDO",
        "pdv":10030,
        "nombre_pdv":"PONCE VALERIA DE LOS ANGELES",
        "seller":425,
        "nombre_seller":"IDARRETA GUSTAVO D. [425]",
        "transmision":1299595,
        "latitud_order":"-35.164633333333",
        "longitud_order":"-58.230431666667",
        "latitud_pdv":"-35.164633333333",
        "longitud_pdv":"-58.230431666667",
        "total":"638,846",
        "tipo_order":"PED"
    },
    {
        "date":"2019-07-02 09:49:50.0000",
        "nosalereason":"PEDIDO",
        "pdv":4059,
        "nombre_pdv":"YU JINYANG",
        "seller":425,
        "nombre_seller":"IDARRETA GUSTAVO D. [425]",
        "transmision":1299596,
        "latitud_order":"-35.169193144826977",
        "longitud_order":"-58.2360726062237788",
        "latitud_pdv":"-35.169193144826977",
        "longitud_pdv":"-58.2360726062237788",
        "total":"1752,037",
        "tipo_order":"PED"
    },
    {
        "date":"2019-07-02 10:29:54.0000",
        "nosalereason":"PEDIDO",
        "pdv":4023,
        "nombre_pdv":"BORDA OSCAR ALFREDO",
        "seller":425,
        "nombre_seller":"IDARRETA GUSTAVO D. [425]",
        "transmision":1299669,
        "latitud_order":"-35.1684619340117806",
        "longitud_order":"-58.2364334216368462",
        "latitud_pdv":"-35.1684619340117806",
        "longitud_pdv":"-58.2364334216368462",
        "total":"2291,439",
        "tipo_order":"PED"
    },
    {
        "date":"2019-07-02 10:32:09.0000",
        "nosalereason":"PEDIDO",
        "pdv":4023,
        "nombre_pdv":"BORDA OSCAR ALFREDO",
        "seller":425,
        "nombre_seller":"IDARRETA GUSTAVO D. [425]",
        "transmision":1299670,
        "latitud_order":"-35.1684619340117806",
        "longitud_order":"-58.2364334216368462",
        "latitud_pdv":"-35.1684619340117806",
        "longitud_pdv":"-58.2364334216368462",
        "total":"2630,214",
        "tipo_order":"PED"
    },
    {
        "date":"2019-07-02 10:49:29.0000",
        "nosalereason":"PEDIDO",
        "pdv":3265,
        "nombre_pdv":"VAZQUEZ MONICA BIBIANA",
        "seller":425,
        "nombre_seller":"IDARRETA GUSTAVO D. [425]",
        "transmision":1299671,
        "latitud_order":"-35.178078362968364",
        "longitud_order":"-58.2338324416664932",
        "latitud_pdv":"-35.178078362968364",
        "longitud_pdv":"-58.2338324416664932",
        "total":"1321,49",
        "tipo_order":"PED"
    },
    {
        "date":"2019-07-02 11:08:49.0000",
        "nosalereason":"PEDIDO",
        "pdv":4023,
        "nombre_pdv":"BORDA OSCAR ALFREDO",
        "seller":425,
        "nombre_seller":"IDARRETA GUSTAVO D. [425]",
        "transmision":1299672,
        "latitud_order":"-35.1684619340117806",
        "longitud_order":"-58.2364334216368462",
        "latitud_pdv":"-35.1684619340117806",
        "longitud_pdv":"-58.2364334216368462",
        "total":"815,933",
        "tipo_order":"PED"
    },
    {
        "date":"2019-07-02 11:16:23.0000",
        "nosalereason":"PEDIDO",
        "pdv":9799,
        "nombre_pdv":"ANDREONE ESTELA AZUCENA",
        "seller":425,
        "nombre_seller":"IDARRETA GUSTAVO D. [425]",
        "transmision":1299673,
        "latitud_order":"-35.2777592",
        "longitud_order":"-58.2022761",
        "latitud_pdv":"-35.2777592",
        "longitud_pdv":"-58.2022761",
        "total":"4553,789",
        "tipo_order":"PED"
    },
    {
        "date":"2019-07-02 11:31:20.0000",
        "nosalereason":"CON STOCK",
        "pdv":9815,
        "nombre_pdv":"ZHUANG JIANFENG",
        "seller":425,
        "nombre_seller":"IDARRETA GUSTAVO D. [425]",
        "transmision":370405,
        "latitud_order":"-35.2772686",
        "longitud_order":"-58.2000496",
        "latitud_pdv":"-35.2772686",
        "longitud_pdv":"-58.2000496",
        "total":"0",
        "tipo_order":"MNV"
    },
    {
        "date":"2019-07-02 11:44:59.0000",
        "nosalereason":"CON STOCK",
        "pdv":9503,
        "nombre_pdv":"MARTINEZ HUGO NESTOR",
        "seller":425,
        "nombre_seller":"IDARRETA GUSTAVO D. [425]",
        "transmision":370406,
        "latitud_order":"-35.2773693999999978",
        "longitud_order":"-58.2000677999999994",
        "latitud_pdv":"-35.2773693999999978",
        "longitud_pdv":"-58.2000677999999994",
        "total":"0",
        "tipo_order":"MNV"
    },
    {
        "date":"2019-07-02 12:17:31.0000",
        "nosalereason":"CON STOCK",
        "pdv":9449,
        "nombre_pdv":"LOPEZ MARIEL EVANGELINA",
        "seller":425,
        "nombre_seller":"IDARRETA GUSTAVO D. [425]",
        "transmision":370407,
        "latitud_order":"-35.2773131000000006",
        "longitud_order":"-58.1996564000000021",
        "latitud_pdv":"-35.2773131000000006",
        "longitud_pdv":"-58.1996564000000021",
        "total":"0",
        "tipo_order":"MNV"
    },
    {
        "date":"2019-07-02 12:17:37.0000",
        "nosalereason":"CON STOCK",
        "pdv":4452,
        "nombre_pdv":"JARA JIMENA ARACELI",
        "seller":425,
        "nombre_seller":"IDARRETA GUSTAVO D. [425]",
        "transmision":370408,
        "latitud_order":"-35.2776421517314276",
        "longitud_order":"-58.198908647601499",
        "latitud_pdv":"-35.2776421517314276",
        "longitud_pdv":"-58.198908647601499",
        "total":"0",
        "tipo_order":"MNV"
    },
    {
        "date":"2019-07-02 12:17:48.0000",
        "nosalereason":"PEDIDO",
        "pdv":4456,
        "nombre_pdv":"ALFONSO JOSE DANIEL",
        "seller":425,
        "nombre_seller":"IDARRETA GUSTAVO D. [425]",
        "transmision":1299759,
        "latitud_order":"-35.2794105415011359",
        "longitud_order":"-58.197294529616002",
        "latitud_pdv":"-35.2794105415011359",
        "longitud_pdv":"-58.197294529616002",
        "total":"1527,552",
        "tipo_order":"PED"
    },
    {
        "date":"2019-07-02 12:23:18.0000",
        "nosalereason":"PEDIDO",
        "pdv":4455,
        "nombre_pdv":"IRIGOYEN CARLOS ALBERTO Y HNOS",
        "seller":425,
        "nombre_seller":"IDARRETA GUSTAVO D. [425]",
        "transmision":1299760,
        "latitud_order":"-35.2768652616993919",
        "longitud_order":"-58.1981062873121786",
        "latitud_pdv":"-35.2768652616993919",
        "longitud_pdv":"-58.1981062873121786",
        "total":"986,273",
        "tipo_order":"PED"
    },
    {
        "date":"2019-07-02 13:07:23.0000",
        "nosalereason":"CON STOCK",
        "pdv":4460,
        "nombre_pdv":"GUZMAN ANALIA VERONICA",
        "seller":425,
        "nombre_seller":"IDARRETA GUSTAVO D. [425]",
        "transmision":370455,
        "latitud_order":"-35.2801244298701562",
        "longitud_order":"-58.2003233242884619",
        "latitud_pdv":"-35.2801244298701562",
        "longitud_pdv":"-58.2003233242884619",
        "total":"0",
        "tipo_order":"MNV"
    },
    {
        "date":"2019-07-02 13:07:42.0000",
        "nosalereason":"PEDIDO",
        "pdv":10189,
        "nombre_pdv":"PEREYRA LILIANA KARINA",
        "seller":425,
        "nombre_seller":"IDARRETA GUSTAVO D. [425]",
        "transmision":1299820,
        "latitud_order":"-35.167026666667",
        "longitud_order":"-58.23648",
        "latitud_pdv":"-35.167026666667",
        "longitud_pdv":"-58.23648",
        "total":"1767,207",
        "tipo_order":"PED"
    },
    {
        "date":"2019-07-02 13:42:50.0000",
        "nosalereason":"SIN VISITA",
        "pdv":4023,
        "nombre_pdv":"BORDA OSCAR ALFREDO",
        "seller":425,
        "nombre_seller":"IDARRETA GUSTAVO D. [425]",
        "transmision":1299849,
        "latitud_order":"-35.1684619340117806",
        "longitud_order":"-58.2364334216368462",
        "latitud_pdv":"-35.1684619340117806",
        "longitud_pdv":"-58.2364334216368462",
        "total":"0",
        "tipo_order":"RVN"
    },
    {
        "date":"2019-07-02 14:46:16.0000",
        "nosalereason":"PEDIDO",
        "pdv":8880,
        "nombre_pdv":"VILLALBA MARIA LAURA",
        "seller":425,
        "nombre_seller":"IDARRETA GUSTAVO D. [425]",
        "transmision":1299914,
        "latitud_order":"-35.1680367730050492",
        "longitud_order":"-58.2327332423449349",
        "latitud_pdv":"-35.1680367730050492",
        "longitud_pdv":"-58.2327332423449349",
        "total":"1216,588",
        "tipo_order":"PED"
    },
    {
        "date":"2019-07-03 00:06:21.0000",
        "nosalereason":"PEDIDO",
        "pdv":8581,
        "nombre_pdv":"PETERSEN SILVIA BEATRIZ",
        "seller":425,
        "nombre_seller":"IDARRETA GUSTAVO D. [425]",
        "transmision":1300176,
        "latitud_order":"-35.1643537290386163",
        "longitud_order":"-58.2460009004908486",
        "latitud_pdv":"-35.1643537290386163",
        "longitud_pdv":"-58.2460009004908486",
        "total":"2006,576",
        "tipo_order":"PED"
    },
    {
        "date":"2019-07-03 08:20:57.0000",
        "nosalereason":"CON STOCK",
        "pdv":3956,
        "nombre_pdv":"CANEPA ELSA LUJAN",
        "seller":425,
        "nombre_seller":"IDARRETA GUSTAVO D. [425]",
        "transmision":370660,
        "latitud_order":"-35.180094149168653",
        "longitud_order":"-58.2364062819983346",
        "latitud_pdv":"-35.180094149168653",
        "longitud_pdv":"-58.2364062819983346",
        "total":"0",
        "tipo_order":"MNV"
    },
    {
        "date":"2019-07-03 08:28:37.0000",
        "nosalereason":"PEDIDO",
        "pdv":8623,
        "nombre_pdv":"KOLHN ANDREA FABIANA",
        "seller":425,
        "nombre_seller":"IDARRETA GUSTAVO D. [425]",
        "transmision":1300066,
        "latitud_order":"-35.1691170000264393",
        "longitud_order":"-58.2282103240519291",
        "latitud_pdv":"-35.1691170000264393",
        "longitud_pdv":"-58.2282103240519291",
        "total":"1938,344",
        "tipo_order":"PED"
    },
    {
        "date":"2019-07-03 08:36:33.0000",
        "nosalereason":"PEDIDO",
        "pdv":335,
        "nombre_pdv":"LI HENG ZHONG",
        "seller":425,
        "nombre_seller":"IDARRETA GUSTAVO D. [425]",
        "transmision":1300067,
        "latitud_order":"-35.1707716527019372",
        "longitud_order":"-58.2366125835194808",
        "latitud_pdv":"-35.1707716527019372",
        "longitud_pdv":"-58.2366125835194808",
        "total":"3341,679",
        "tipo_order":"PED"
    },
    {
        "date":"2019-07-03 08:55:23.0000",
        "nosalereason":"PEDIDO",
        "pdv":335,
        "nombre_pdv":"LI HENG ZHONG",
        "seller":425,
        "nombre_seller":"IDARRETA GUSTAVO D. [425]",
        "transmision":1300068,
        "latitud_order":"-35.1707716527019372",
        "longitud_order":"-58.2366125835194808",
        "latitud_pdv":"-35.1707716527019372",
        "longitud_pdv":"-58.2366125835194808",
        "total":"4676,531",
        "tipo_order":"PED"
    },
    {
        "date":"2019-07-03 09:01:59.0000",
        "nosalereason":"SIN VISITA",
        "pdv":7813,
        "nombre_pdv":"ESCOT YANETT",
        "seller":425,
        "nombre_seller":"IDARRETA GUSTAVO D. [425]",
        "transmision":1300069,
        "latitud_order":"-35.1658732726333909",
        "longitud_order":"-58.2395169666273134",
        "latitud_pdv":"-35.1658732726333909",
        "longitud_pdv":"-58.2395169666273134",
        "total":"0",
        "tipo_order":"RVN"
    },
    {
        "date":"2019-07-03 09:19:50.0000",
        "nosalereason":"PEDIDO",
        "pdv":10011,
        "nombre_pdv":"MANSO MATEO",
        "seller":425,
        "nombre_seller":"IDARRETA GUSTAVO D. [425]",
        "transmision":1300070,
        "latitud_order":"-35.170771666667",
        "longitud_order":"-58.233495",
        "latitud_pdv":"-35.170771666667",
        "longitud_pdv":"-58.233495",
        "total":"3262,829",
        "tipo_order":"PED"
    },
    {
        "date":"2019-07-03 10:00:31.0000",
        "nosalereason":"PEDIDO",
        "pdv":7626,
        "nombre_pdv":"DON OCTAVIO PANIFICADOS SRL",
        "seller":425,
        "nombre_seller":"IDARRETA GUSTAVO D. [425]",
        "transmision":1300071,
        "latitud_order":"-35.16998457791663",
        "longitud_order":"-58.23153954352448",
        "latitud_pdv":"-35.1704094896870814",
        "longitud_pdv":"-58.2326006719155416",
        "total":"2303,92",
        "tipo_order":"PED"
    },
    {
        "date":"2019-07-03 12:20:03.0000",
        "nosalereason":"CON STOCK",
        "pdv":2293,
        "nombre_pdv":"CALVO LAURA",
        "seller":425,
        "nombre_seller":"IDARRETA GUSTAVO D. [425]",
        "transmision":370710,
        "latitud_order":"-35.1699980424230603",
        "longitud_order":"-58.238267535898629",
        "latitud_pdv":"-35.1699980424230603",
        "longitud_pdv":"-58.238267535898629",
        "total":"0",
        "tipo_order":"MNV"
    },
    {
        "date":"2019-07-03 12:20:08.0000",
        "nosalereason":"CON STOCK",
        "pdv":8203,
        "nombre_pdv":"SARDAGNA DANIELA (HASTA 13:30HS)",
        "seller":425,
        "nombre_seller":"IDARRETA GUSTAVO D. [425]",
        "transmision":370711,
        "latitud_order":"-35.1719104915195757",
        "longitud_order":"-58.2373294312532508",
        "latitud_pdv":"-35.1719104915195757",
        "longitud_pdv":"-58.2373294312532508",
        "total":"0",
        "tipo_order":"MNV"
    },
    {
        "date":"2019-07-03 12:20:14.0000",
        "nosalereason":"CON STOCK",
        "pdv":1588,
        "nombre_pdv":"BASTITTA LUCIANO HERNAN",
        "seller":425,
        "nombre_seller":"IDARRETA GUSTAVO D. [425]",
        "transmision":370712,
        "latitud_order":"-35.1641424333277328",
        "longitud_order":"-58.235652196343743",
        "latitud_pdv":"-35.1641424333277328",
        "longitud_pdv":"-58.235652196343743",
        "total":"0",
        "tipo_order":"MNV"
    },
    {
        "date":"2019-07-03 12:20:19.0000",
        "nosalereason":"CON STOCK",
        "pdv":338,
        "nombre_pdv":"BARRAGAN TELMA ADRIANA",
        "seller":425,
        "nombre_seller":"IDARRETA GUSTAVO D. [425]",
        "transmision":370713,
        "latitud_order":"-35.1717319574713514",
        "longitud_order":"-58.2363472490302811",
        "latitud_pdv":"-35.1717319574713514",
        "longitud_pdv":"-58.2363472490302811",
        "total":"0",
        "tipo_order":"MNV"
    },
    {
        "date":"2019-07-03 12:20:25.0000",
        "nosalereason":"CON STOCK",
        "pdv":9684,
        "nombre_pdv":"YORNET MATIAS GONZALO",
        "seller":425,
        "nombre_seller":"IDARRETA GUSTAVO D. [425]",
        "transmision":370714,
        "latitud_order":null,
        "longitud_order":null,
        "latitud_pdv":null,
        "longitud_pdv":null,
        "total":"0",
        "tipo_order":"MNV"
    }
]